{
  "Брестская область": {
    "Брест": [
      {
        "name": "САНТА Мошенского",
        "address": "г. Брест, ул. Мошенского 82, магазин «САНТА»",
        "hours": "Пн-Вс: 10:00-22:00\nПерерыв: 14:30-15:00\n18:00-18:30\nБез выходных",
        "map_url": "https://yandex.by/maps/-/CHRK6X21"
      },
      {
        "name": "Санта Рябиновая",
        "address": "г. Брест, ул. Рябиновая 1А, магазин \"Санта\"",
        "hours": "Пн-Вс: 10:00-22:00\nПерерыв: 14:30-15:00, 18:30-19:00\nБез выходных",
        "map_url": "https://yandex.by/maps/-/CHRK6S-3"
      },
      {
        "name": "Супермаркет МИКС",
        "address": "г. Брест, ул. 28 Июля 37А, Супермаркет «МИКС»",
        "hours": "Пн-Вс: 10:00-22:00\nПерерыв: 14:30-15:00, 18:30-19:00\nБез выходных",
        "map_url": "https://yandex.by/maps/-/CHRKbEpq"
      },
      {
        "name": "ТРЦ Экватор",
        "address": "г. Брест, ул. Гаврилова 16, ТРЦ «Экватор», торговый остров",
        "hours": "Пн-Вс: 10:00-22:00\nПерерыв: 14:30-15:00, 18:30-19:00\nБез выходных",
        "map_url": "https://yandex.by/maps/-/CHRK68NP"
      },
      {
        "name": "ТЦ Корона (Московская 210)",
        "address": "г. Брест, ул. Московская 210, ТЦ «Корона»",
        "hours": "Пн-Вс: 10:00-22:00\nПерерыв: 14:30-15:00, 18:30-19:00\nБез выходных",
        "map_url": "https://yandex.by/maps/-/CHbkAJo9"
      },
      {
        "name": "ТЦ Корона (пр. Машерова 16)",
        "address": "г. Брест, пр. Машерова 16, ТЦ «Корона»",
        "hours": "Пн-Вс: 10:00-22:00\nПерерыв: 14:30-15:00\n18:30-19:00\nБез выходных",
        "map_url": "https://yandex.by/maps/-/CHRK647~"
      },
      {
        "name": "АЛМИ Юбилейный",
        "address": "г. Брест, ул. Московская 328, ТЦ «АЛМИ Юбилейный»",
        "hours": "Пн-Вс: 10:00-22:00\nПерерыв: 14:30-15:00\n18:30-19:00\nБез выходных",
        "map_url": "https://yandex.by/maps/-/CHRK6Kon"
      },
      {
        "name": "ТЦ Варшавский",
        "address": "г. Брест, ул. Маховича 6, ТЦ «Варшавский»",
        "hours": "Пн-Вс: 10:00-22:00\nПерерыв: 14:30-15:00\n18:30-19:00\nБез выходных",
        "map_url": "https://yandex.by/maps/-/CHRKZPPR"
      },
      {
        "name": "ТЦ Москва",
        "address": "г. Брест, пр. Машерова 17Б, ТЦ «Москва», пав. №3",
        "hours": "Пн-Вс: 10:00-22:00\nПерерыв: 14:30-15:00\n18:30-19:00\nБез выходных",
        "map_url": "https://yandex.by/maps/-/CHbkASYT"
      },
      {
        "name": "ТЦ Никольский",
        "address": "г. Брест, Карбышева 21, ТЦ «Никольский», 1 этаж",
        "hours": "Пн-Вс: 10:00-19:00\nПерерыв: 13:30-13:30\nБез выходных",
        "map_url": "https://yandex.by/maps/-/CHRK6RZH"
      },
      {
        "name": "ЦУМ",
        "address": "г. Брест, пр. Машерова 17, ЦУМ, 1 этаж",
        "hours": "Пн-Вс: 10:00-21:00\nПерерыв: 13:30-14:00\n18:00-18:30\nБез выходных",
        "map_url": "https://yandex.by/maps/-/CHRK6EPY"
      }
    ],
    "Кобрин": [
      {
        "name": "ТЦ Алиса",
        "address": "г. Кобрин, пр. Дзержинского 68, ТЦ «Алиса»",
        "hours": "Пн-Пт: 10:00-22:00\nСб-Вс: 10:00-17:00\nПерерыв: 13:00-13:30\nБез выходных",
        "map_url": "https://yandex.by/maps/-/CHbkAV9y"
      }
    ],
    "Барановичи": [
      {
        "name": "АЛМИ",
        "address": "г. Барановичи, ул. 50 лет БССР 86",
        "hours": "Пн-Вс: 10:00-22:00\nПерерыв: 14:30-15:00\n18:00-18:30\nБез выходных",
        "map_url": "https://yandex.by/maps/-/CHbg7P92"
      }
    ],
    "Берёза": [
      {
        "name": "Санта",
        "address": "г. Берёза, ул. Ленина 101",
        "hours": "Пн-Вс: 10:00-22:00\nПерерыв: 15:00-16:00\nБез выходных",
        "map_url": "https://yandex.by/maps/-/CHbkAL9H"
      }
    ],
    "Ивацевичи": [
      {
        "name": "Санта",
        "address": "г. Ивацевичи, ул. Депутатская 47",
        "hours": "Пн-Вс: 10:00-22:00\nПерерыв: 14:30-15:00\n18:00-18:30\nБез выходных",
        "map_url": "https://yandex.by/maps/-/CHbg7Hl2"
      }
    ],
    "Лунинец": [
      {
        "name": "САНТА",
        "address": "г. Лунинец, ул. Бохоново 11В",
        "hours": "Пн-Вс: 10:00-22:00\nПерерыв: 14:30-15:00\n18:00-18:30\nБез выходных",
        "map_url": "https://yandex.by/maps/-/CHbkAINn"
      }
    ],
    "Пинск": [
      {
        "name": "EUROSPAR",
        "address": "г. Пинск, ул. Шапошника 9, ТЦ «EUROSPAR»",
        "hours": "Пн-Вс: 10:00-22:00\nПерерыв: 14:30-15:00\n18:00-18:30\nБез выходных",
        "map_url": "https://yandex.by/maps/-/CHbkAKpF"
      },
      {
        "name": "ТЦ Алми",
        "address": "г. Пинск, ул. Центральная 23, ТЦ «Алми», 2-й этаж",
        "hours": "Пн-Вс: 10:00-22:00\nПерерыв: 14:30-15:00\n18:00-18:30\nБез выходных",
        "map_url": "https://yandex.by/maps/-/CHbkACnn"
      }
    ]
  },
  "Минская область": {
    "Минск": [
      {
        "name": "АЛМИ",
        "address": "г. Минск, ул. Притыцкого, 93",
        "hours": "Пн-Вс: 10:00-22:00\nПерерыв: 14:30-15:00\n18:00-18:30\nБез выходных",
        "map_url": "https://yandex.by/maps/-/CHbkAYoe"
      }
    ],
    "Борисов": [
      {
        "name": "АЛМИ",
        "address": "г. Борисов, ул. Полка Нормандия-Неман 4а",
        "hours": "Пн-Вс: 10:00-22:00\nПерерыв: 14:30-15:00\n18:00-18:30\nБез выходных",
        "map_url": "https://yandex.by/maps/-/CHbkAUkp"
      }
    ],
    "Молодечно": [
      {
        "name": "АЛМИ",
        "address": "г. Молодечно, ул. Великий Гостинец 136",
        "hours": "Пн-Вс: 10:00-22:00\nПерерыв: 14:30-15:00\n18:00-18:30\nБез выходных",
        "map_url": "https://yandex.by/maps/-/CHbkAEZ5"
      }
    ],
    "Солигорск": [
      {
        "name": "ТЦ Вест",
        "address": "г. Солигорск, ул. К. Заслонова 23, ТЦ «Вест» (возле KFC)",
        "hours": "Пн-Вс: 10:00-21:00\nПерерыв: 14:00-14:30\nБез выходных",
        "map_url": "https://yandex.by/maps/-/CHbkAZ-J"
      }
    ]
  },
  "Гродненская область": {
    "Гродно": [
      {
        "name": "АЛМИ Соломовой",
        "address": "г. Гродно, ул. Ольги Соломовой 112",
        "hours": "Пн-Вс: 10:00-22:00\nПерерыв: 14:30-15:00\n18:00-18:30\nБез выходных",
        "map_url": "https://yandex.by/maps/-/CHbg7D0H"
      },
      {
        "name": "АЛМИ Кабяка",
        "address": "г. Гродно, ул. Кабяка 13",
        "hours": "Пн-Вс: 10:00-22:00\nПерерыв: 14:30-15:00\n18:30-19:00\nБез выходных",
        "map_url": "https://yandex.by/maps/-/CHbkAMyk"
      },
      {
        "name": "АЛМИ Сов.Пограничников",
        "address": "г. Гродно, ул. Советских Пограничников, 10А",
        "hours": "Пн-Вс: 10:00-22:00\nПерерыв: 14:30-15:00\n18:30-19:00\nБез выходных",
        "map_url": "https://yandex.by/maps/-/CHbg7O8J"
      },
      {
        "name": "Санта",
        "address": "г. Гродно, ул. Огинского 2",
        "hours": "Пн-Вс: 10:00-22:00\nПерерыв: 14:30-15:00\n18:30-19:00\nБез выходных",
        "map_url": "https://yandex.by/maps/-/CHbg7WJ1"
      },
      {
        "name": "ТЦ Корона",
        "address": "г. Гродно, пр-т Космонавтов 81, ТЦ «Корона»",
        "hours": "Пн-Вс: 10:00-22:00\nПерерыв: 14:30-15:00\n18:30-19:00\nБез выходных",
        "map_url": "https://yandex.by/maps/-/CHbg707H"
      },
      {
        "name": "ТЦ Парус",
        "address": "г. Гродно, ул. Огинского 12, ТЦ «Парус»",
        "hours": "Пн-Вс: 10:00-22:00\nПерерыв: 14:30-15:00\n18:30-19:00\nБез выходных",
        "map_url": "https://yandex.by/maps/-/CHbg78O~"
      }
    ],
    "Волковыск": [
      {
        "name": "Санта",
        "address": "г. Волковыск, ул. Софьи Панковой 57А",
        "hours": "Пн-Вс: 10:00-22:00\nПерерыв: 14:30-15:00\n18:00-18:30\nБез выходных",
        "map_url": "https://yandex.by/maps/-/CHbg7-ZN"
      }
    ],
    "Лида": [
      {
        "name": "АЛМИ Гастелло",
        "address": "г. Лида, ул. Гастелло 55, ТЦ «АЛМИ»",
        "hours": "Пн-Вс: 10:00-22:00\nПерерыв: 14:30-15:00\n18:00-18:30\nБез выходных",
        "map_url": "https://yandex.by/maps/-/CHbkANpw"
      },
      {
        "name": "АЛМИ Победы",
        "address": "г. Лида, ул. Победы 43",
        "hours": "Пн-Вс: 10:00-22:00\nПерерыв: 14:30-15:00\n18:30-19:00\nБез выходных",
        "map_url": "https://yandex.by/maps/-/CHbkAB9O"
      }
    ]
  },
  "Витебская область": {
    "Витебск": [
      {
        "name": "ТРЦ Грин",
        "address": "г. Витебск, ул. Чкалова 35, ТРЦ \"Грин\"",
        "hours": "Пн-Вс: 10:00-22:00\nПерерыв: 14:30-15:00\n18:30-19:00\nБез выходных",
        "map_url": "https://yandex.by/maps/-/CHbkA4KF"
      },
      {
        "name": "ТЦ Трио",
        "address": "г. Витебск, пр. Строителей 15В, ТЦ «Трио»",
        "hours": "Пн-Вс: 11:00-21:00\nПерерыв: 14:30-15:00\n18:30-19:00\nБез выходных",
        "map_url": "https://yandex.by/maps/-/CHbkAWy8"
      }
    ]
  },
  "Гомельская область": {
    "Гомель": [
      {
        "name": "АЛМИ",
        "address": "г. Гомель, ул. Мазурова, 79",
        "hours": "Пн-Вс: 10:00-22:00\nПерерыв: 14:30-15:00\n18:00-18:30\nБез выходных",
        "map_url": "https://yandex.by/maps/-/CHbg7Lko"
      }
    ],
    "Мозырь": [
      {
        "name": "EUROSPAR",
        "address": "г. Мозырь, ул. Юности 32, ТЦ «EUROSPAR»",
        "hours": "Пн-Вс: 10:00-22:00\nПерерыв: 14:30-15:00\n18:30-19:00\nБез выходных",
        "map_url": "https://yandex.by/maps/-/CHbkA6Kd"
      }
    ],
    "Светлогорск": [
      {
        "name": "АЛМИ",
        "address": "г. Светлогорск, ул. 50 лет Октября, 19-65, ТЦ «АЛМИ»",
        "hours": "Пн-Вс: 10:00-22:00\nПерерыв: 12:00-12:30, 15:00-15:30, 18:00-18:30\nБез выходных",
        "map_url": "https://yandex.by/maps/-/CHbkAR-s"
      }
    ]
  },
  "Могилёвская область": {
    "Могилёв": [
      {
        "name": "Евроspar",
        "address": "г. Могилёв, ул. Гагарина 79, ТЦ «Евроspar»",
        "hours": "Пн-Вс: 10:00-22:00\nПерерыв: 14:30-15:00\n18:00-18:30\nБез выходных",
        "map_url": "https://yandex.by/maps/-/CHbg7Tp6"
      }
    ]
  }
}